,City,ID,Humidity,Longitude,Latitude,Temperature (F),Cloudiness,Wind Speed
0,Kapaa,5848280,78,-159.32,22.08,80.26,75,13.87
1,Ahipara,2194098,74,173.17,-35.17,61.52,88,5.95
4,Albany,5106841,56,-73.97,42.6,78.91,8,4
5,Hualmay,3939761,84,-77.61,-11.1,62.13,10,8.28
6,Nikolskoye,546105,87,30.79,59.7,50.94,1,6.71
7,Palaia Fokaia,256173,69,23.95,37.72,73.8,2,12.75
8,Bethel,5282297,42,-73.41,41.37,79.77,1,5.82
9,Punta Arenas,3874787,80,-70.92,-53.15,35.29,90,8.05
10,Namatanai,2090021,73,152.43,-3.67,82.89,100,5.1
12,Rikitea,4030556,85,-134.97,-23.12,73.17,53,12.1
13,Qaqortoq,3420846,76,-46.03,60.72,55.4,100,6.93
14,Mataura,6201424,83,168.86,-46.19,39,91,3
15,Constitución,3893726,79,-72.42,-35.33,53.15,41,5.91
16,Kulhudhuffushi,1337613,69,73.07,6.62,83.88,46,6.82
18,Bredasdorp,1015776,87,20.04,-34.53,46.4,70,13.87
19,Ushuaia,3833367,86,-68.3,-54.8,33.8,40,18.34
20,Tiksi,2015306,96,128.87,71.69,41.56,99,9.37
22,Lüderitz,3355672,71,15.16,-26.65,55.4,0,16.11
23,Belyy Yar,1510377,88,91.39,53.6,64.4,95,4.47
24,Puerto Ayora,3652764,91,-90.35,-0.74,69.01,47,8.68
25,Uauá,3385883,71,-39.48,-9.84,70.92,32,10.22
26,Nokaneng,933211,41,22.27,-19.67,47.08,0,2.95
27,Vila Velha,3445026,78,-40.29,-20.33,75.2,0,11.41
28,Hobart,2163355,81,147.33,-42.88,42.75,75,5.82
29,Hermanus,3366880,75,19.23,-34.42,51.01,99,11.99
31,Upernavik,3418910,88,-56.15,72.79,40.82,70,13.87
32,Ilulissat,3423146,70,-51.1,69.22,46.4,100,0.22
33,Pevek,2122090,74,170.31,69.7,42.15,80,0.63
34,Dikson,1507390,97,80.55,73.51,39.34,100,14.61
36,Lander,5830007,10,-108.73,42.83,87.15,1,26.4
37,Tuktoyaktuk,6170031,63,-133.04,69.45,62.6,40,6.93
38,George Town,1735106,94,100.34,5.41,77.63,20,1.57
39,Chokurdakh,2126123,37,147.92,70.63,65.97,39,14.47
40,Busselton,2075265,78,115.33,-33.65,48.54,51,12.53
41,Colomi,3919813,92,-65.87,-17.35,66.2,32,3.36
42,Coldingham,2655819,81,-2.16,55.89,51.66,3,15.28
43,Hofn,2630299,81,-15.21,64.25,50.68,95,4.21
44,Leningradskiy,2123814,80,178.42,69.38,40.93,100,10.56
45,Tarabuco,3903391,77,-64.92,-19.17,46.45,0,4.7
46,Monrovia,2274895,94,-10.8,6.3,77,75,4.7
47,Hilo,5855927,58,-155.09,19.73,76.78,1,8.05
48,Yulara,6355222,60,130.99,-25.24,41,0,5.82
49,Qaanaaq,3831208,65,-69.36,77.48,44.62,0,7.67
50,New Norfolk,2155415,92,147.06,-42.78,40.01,7,1.77
52,Lompoc,5367788,72,-120.46,34.64,63.95,4,16.11
53,Dalvik,2632287,87,-18.53,65.97,51.8,90,8.05
54,Provideniya,4031574,66,-173.3,64.38,53.6,94,13.42
55,Saint-Paul,935221,73,55.27,-21.01,60.91,20,10.29
56,Mehamn,778707,86,27.85,71.04,45.18,57,3.38
57,Saskylakh,2017155,63,114.08,71.92,63.59,86,12.5
58,Song Phi Nong,1606139,80,100.02,14.22,80.96,100,4.41
59,Tupik,2014836,58,119.93,54.43,74.43,93,0.85
60,Sabha,2212775,30,14.43,27.04,78.51,0,17.09
61,Caravelas,3466980,89,-39.25,-17.71,71.37,13,5.5
62,Castro,3466704,86,-50.01,-24.79,62.42,20,5.35
63,Kuty,703514,86,25.18,48.26,48.15,4,4.59
64,Khandyga,2022773,73,135.6,62.67,73.6,73,4.7
65,Werda,932960,66,23.28,-25.27,41.76,0,7.85
66,Mbandaka,2312895,95,18.26,0.05,68.9,99,2.37
67,Szczytno,757357,100,20.99,53.56,48.2,12,2.24
68,Hasaki,2112802,100,140.83,35.73,71.87,75,5.82
69,Yar-Sale,1486321,72,70.83,66.83,51.13,88,15.01
70,Kiruna,605155,93,20.23,67.86,44.6,100,2.24
71,Khatanga,2022572,49,102.5,71.97,68.54,26,13.13
72,Jamestown,5122534,64,-79.24,42.1,70.56,1,10.29
73,Nanortalik,3421765,93,-45.24,60.14,44.64,100,2.89
74,Grand Gaube,934479,79,57.66,-20.01,71.01,3,1.99
75,Lagoa,3372964,83,-27.98,39.05,68.92,6,11.97
76,San Cristobal,3628473,51,-72.22,7.77,82.4,40,18.34
78,Kapit,1737185,95,112.93,2.02,73.67,100,1.14
79,Preston,2639912,89,-2.72,53.77,58.57,99,8.14
80,Baker City,5712169,19,-117.83,44.77,75.56,1,11.41
82,Pisco,3932145,87,-76.22,-13.7,60.89,90,4.7
83,Cidreira,3466165,70,-50.21,-30.18,51.35,59,10.8
84,Kingman,5301067,13,-114.05,35.19,103.68,1,19.46
85,Mar del Plata,3430863,65,-57.56,-38,41.7,20,11.41
86,San Diego de la Unión,3987309,22,-100.87,21.47,81.99,0,4
87,Ust-Nera,2120048,59,143.2,64.57,73.08,98,8.5
89,Nome,5870133,76,-165.41,64.5,56.39,1,18.34
90,Narsaq,3421719,76,-46.05,60.92,55.4,100,6.93
91,Butaritari,2110227,74,172.79,3.07,81.03,85,1.19
92,Oistins,3373652,74,-59.53,13.07,82.4,40,14.99
94,Cherskiy,2126199,54,161.3,68.75,64.71,19,2.57
95,Burgos,3127460,71,-3.71,42.34,54.61,5,6.93
96,Laas,3175096,93,10.7,46.62,55.4,5,3.36
97,Orlik,1496073,67,99.83,52.52,63.12,94,0.36
98,Saint Paul Harbor,5866583,72,-152.41,57.79,59,90,9.17
99,Talnakh,1490256,93,88.4,69.49,53.6,75,2.24
100,Batagay,2027044,54,134.63,67.63,68.54,57,12.55
101,Atuona,4020109,78,-139.03,-9.8,79.18,25,19.01
102,Gogrial,374739,83,28.1,8.53,73.83,90,3.38
103,Heraclea,315498,37,34.05,37.51,67.23,0,4.43
104,Prince Rupert,6113406,72,-130.32,54.32,62.6,1,5.82
105,Hithadhoo,1282256,75,73.08,-0.6,84.51,83,8.37
106,Harper,2276492,81,-7.72,4.38,75.4,100,10.58
107,Letlhakane,933535,41,25.58,-21.42,48.4,0,7.11
108,Baykit,1510689,58,96.37,61.67,68.31,36,3.15
109,Margate,2643044,65,1.39,51.38,64.85,100,6.89
110,Muscle Shoals,4078964,63,-87.67,34.74,85.37,10,4.52
111,Lebanon,4636045,51,-86.29,36.21,87.17,1,4.7
112,Esperance,2071860,26,121.9,-33.87,57.2,75,20.8
113,Bluff,2206939,83,168.33,-46.6,39,90,3
114,Severo-Kuril'sk,2121385,85,156.12,50.68,50.31,100,2.89
116,Saint-Philippe,935215,68,55.77,-21.36,61.09,45,8.05
117,Ciudad Bolivar,3645532,76,-63.55,8.12,81.25,54,9.31
118,San Andrés,3670218,79,-81.7,12.58,86,40,8.05
119,Ostrovnoy,556268,87,39.51,68.05,43.99,79,3.67
120,Ondjiva,3346821,36,15.73,-17.07,52.12,0,5.21
121,Lázaro Cárdenas,4026082,70,-102.2,17.96,84.45,11,6.38
122,Casino,2172153,47,153.05,-28.87,56.57,0,12.75
123,Tchaourou,2391377,97,2.6,8.89,70.99,54,8.75
124,Kavieng,2094342,74,150.8,-2.57,83.14,100,9.17
125,Tatarsk,1490003,92,75.98,55.22,65.64,19,6.46
126,Barrow,5880054,80,-156.79,71.29,39.2,90,11.41
127,Longyearbyen,2729907,70,15.64,78.22,48.2,75,3.36
128,Kumul,1529484,30,93.45,42.8,74.75,0,8.08
129,Thompson,6165406,93,-97.86,55.74,62.6,75,4.7
130,Fairbanks,5861897,68,-147.72,64.84,61.34,75,13.87
131,Souillac,933995,88,57.52,-20.52,69.8,40,5.82
132,Yatou,1786855,74,122.38,37.15,70.9,69,11.63
133,Port Alfred,964432,45,26.89,-33.59,55.72,26,26.15
134,Avarua,4035715,60,-159.78,-21.21,71.6,90,13.87
135,Seymchan,2121373,67,152.43,62.88,69.3,85,2.55
136,Arlit,2447513,23,7.39,18.74,95.23,100,5.14
137,Río Gallegos,3838859,95,-69.22,-51.62,33.8,75,11.41
138,Vágur,2610806,93,-6.81,61.47,51.46,71,12.3
139,Viedma,3832899,66,-63,-40.81,41.83,0,14.16
140,Beringovskiy,2126710,88,179.32,63.05,50.68,100,3.83
141,Virovitica,3187694,89,17.38,45.83,54,36,3.71
142,Lubango,3347762,35,13.49,-14.92,55.26,0,4.88
143,Cape Town,3369157,76,18.42,-33.93,50.04,75,8.05
144,Thinadhoo,1337610,71,72.93,0.53,84.69,48,8.55
145,São Miguel do Araguaia,3448455,38,-50.16,-13.28,75.34,0,3.49
146,Quelimane,1028434,82,36.89,-17.88,65.19,0,2.51
147,Puerto Quijarro,3444201,52,-57.77,-17.78,79.45,12,1.7
148,General Pico,3855075,62,-63.76,-35.66,38.82,0,3.78
149,Ribeira Grande,3372707,82,-28.7,38.52,68.68,5,13.53
150,Lodja,211647,90,23.43,-3.48,71.31,96,3.42
152,Forsytheganj,10722858,92,29.73,52.63,50.23,12,9.4
153,Antofagasta,3899539,76,-70.4,-23.65,55.4,0,5.82
154,São João da Barra,3448903,79,-41.05,-21.64,72.27,5,7.11
155,Muscatine,4868410,51,-91.13,41.47,82.63,40,10.29
156,Klaksvík,2618795,100,-6.59,62.23,50,99,5.82
157,Griffith,4920986,50,-87.42,41.53,77.68,1,6.93
158,Vardø,777019,93,31.11,70.37,44.6,75,13.87
159,Quatre Cocos,1106643,88,57.76,-20.21,70.43,40,5.82
161,Muli,1337617,70,73.57,2.92,84.06,45,7.49
162,Vostok,2013279,97,135.88,46.49,65.32,55,3.53
163,Kita,2455216,90,-9.49,13.03,72.37,100,1.7
164,Lethem,3379316,80,-59.8,3.38,77.67,31,4.12
165,Santa Isabel Rio Negro,3662489,81,-65.02,-0.41,76.69,12,1.45
166,Havøysund,779622,87,24.66,71,46.4,0,11.41
167,Sioux Lookout,6148373,47,-91.92,50.1,78.8,90,17.22
168,Laguna,5364271,27,-121.42,38.42,92.7,1,13.87
170,Kristianstad,2699310,100,14.15,56.03,47.82,8,1.12
171,Along,1278969,87,94.77,28.17,74.12,90,1.41
172,Sri Aman,1735799,100,111.46,1.24,73.2,100,0.92
173,Saint George,5546220,10,-113.58,37.1,106.43,1,17.22
174,Pinawa,6104820,98,-95.88,50.15,61.43,100,5.37
175,Labuhan,8079926,85,112.21,-6.88,76.71,1,7.58
176,Carnarvon,2074865,100,113.63,-24.87,60.8,40,6.93
177,Atar,2381334,13,-13.05,20.52,96.17,6,5.82
178,Isangel,2136825,78,169.27,-19.55,77,40,4.7
179,Ghanzi,933759,62,21.78,-21.57,41.47,0,2.98
180,Comodoro Rivadavia,3860443,59,-67.5,-45.87,35.6,0,8.05
181,Vaini,4032243,73,-175.2,-21.2,75.2,40,10.29
182,Nelipyno,700341,97,23.03,48.56,39.99,0,13
184,Gwembe,917011,67,27.61,-16.5,53.24,0,0.78
185,San Quintín,3984997,59,-115.95,30.48,75.97,1,13.15
186,Panzhihua,6929460,81,101.71,26.59,71.87,100,0.81
187,Hong Kong,1819729,79,114.16,22.29,85.95,5,8.99
188,Il’inskiy,557140,93,38.12,55.62,62.73,40,8.95
189,Shingū,1847947,100,135.98,33.73,77,75,11.41
190,Lábrea,3663684,83,-64.8,-7.26,76.68,83,1.54
193,Maniitsoq,3421982,81,-52.9,65.42,44.47,0,21.07
194,Pascagoula,4440397,83,-88.56,30.37,82.44,1,3.36
195,Kushima,1895695,66,131.23,31.46,80.85,75,18.34
196,Monroe,5127305,56,-77.68,43.15,73.62,40,9.17
197,Paamiut,3421193,85,-49.67,61.99,43.09,0,4.63
198,Manta,3654410,87,-80.73,-0.95,70.09,72,14.09
199,Bāglung,1283711,75,83.59,28.27,69.93,64,2.35
200,Maturin,3778045,94,-63.18,9.75,76.57,99,5.19
201,Praia da Vitória,3372760,73,-27.07,38.73,69.8,40,10.33
203,Sakakah,102527,13,40.21,29.97,89.6,0,9.17
204,Lebu,3883457,76,-73.65,-37.62,48.16,0,3.27
206,Marsá Maţrūḩ,352733,78,27.25,31.35,75.2,0,5.82
207,Losevo,534073,94,40.05,50.68,66.69,96,9.71
208,Cabo San Lucas,3985710,58,-109.91,22.89,89.58,5,11.41
209,Carutapera,3402648,93,-46.02,-1.2,74.91,34,5.91
210,Oussouye,2246901,88,-16.55,12.48,80.6,40,6.93
211,Roebourne,2062276,37,117.13,-20.78,69.24,5,10.65
212,Yurimaguas,3690654,89,-76.08,-5.9,74.95,86,0.78
213,Saldanha,3361934,81,17.94,-33.01,50,68,4.7
214,Vao,2137773,76,167.48,-22.67,72.81,100,14.72
215,Barra de Tecoanapa,3516171,64,-98.75,16.52,85.53,2,6.78
217,Tuatapere,2180815,83,167.68,-46.13,39,43,3
218,Half Moon Bay,5354943,82,-122.43,37.46,65.59,20,6.93
219,Kitimat,5993072,64,-128.65,54.05,64,82,1.99
220,Khani,610864,94,42.96,41.96,69.8,75,2.24
221,Sørland,3137469,84,12.69,67.67,53.49,85,13.04
222,Torbay,6167817,88,-52.73,47.67,70.88,90,12.75
223,Novopskov,699311,92,39.09,49.55,65.75,100,10
224,Pacific Grove,5380437,72,-121.92,36.62,60.49,90,13.87
225,Tasiilaq,3424607,81,-37.64,65.61,42.8,91,5.82
226,Carballo,3126369,82,-8.69,43.21,60.37,50,5.82
227,Nhulunbuy,2064735,65,136.77,-12.23,77,97,16.11
228,Visnes,3131500,100,5.22,59.36,55.45,90,8.05
230,Isfana,1222662,53,69.53,39.84,77,44,15.66
232,Bathsheba,3374083,74,-59.52,13.22,82.4,40,14.99
233,Kautokeino,779330,85,23.04,69.01,46.09,9,7.78
234,East London,1006984,42,27.91,-33.02,58.59,7,25.57
235,Orodara,2577164,94,-4.93,10.95,75.2,85,3.47
236,Mukhen,2019718,87,136.1,48.1,71.82,40,3.89
237,São José da Coroa Grande,3388456,82,-35.15,-8.9,74.66,20,4.54
238,Itarema,3393692,72,-39.92,-2.92,76.69,62,11.1
239,Maceió,3395981,83,-35.74,-9.67,75.2,40,4.7
240,Victoria Point,2145214,59,153.3,-27.58,56.73,0,8.99
241,Galveston,4692856,70,-94.97,29.37,89.71,1,14.99
242,Tucupita,3625929,96,-62.05,9.06,76.14,100,3.56
243,Awjilah,88533,65,21.29,29.11,75.47,0,8.55
244,Airai,1651810,68,125.41,-8.93,62.4,39,5.35
245,Kruisfontein,986717,60,24.73,-34,47.41,62,14.07
246,Yelan',468063,64,43.74,50.95,72,52,15.99
247,Santa Cruz Cabrália,3450288,83,-39.02,-16.28,75.2,75,3.36
248,Monastyrshchina,525426,94,31.84,54.35,50.45,84,8.21
249,Lingyuan,2036075,59,119.4,41.24,76.75,79,9.64
250,Port Said,358619,78,32.28,31.26,78.8,0,9.17
251,Marawi,1701054,88,124.29,8,77,84,5.99
252,Heishan,2036959,66,122.11,41.69,77.81,93,4.9
253,Banfora,2362909,87,-4.77,10.63,74.59,39,3.18
254,Oktyabr'skiy,515879,83,53.47,54.48,68.05,14,6.17
255,Clyde River,5924351,58,-68.59,70.47,55.4,75,8.05
256,Mandera,187896,61,41.87,3.94,78.51,48,17.2
257,Kahului,5847411,40,-156.47,20.89,82.35,40,19.46
258,Anadyr,2127202,87,177.48,64.75,51.35,40,15.66
259,Norman Wells,6089245,40,-126.83,65.28,73.4,75,4.7
261,Dubno,709540,98,25.73,50.42,55,16,6.51
262,Fortuna,5563839,72,-124.16,40.6,64.44,1,17.22
263,Tripoli,2210247,66,13.19,32.88,76.84,0,8.37
264,Vicuña,3868308,49,-70.71,-30.03,61,0,5.5
265,Pativilca,3932687,89,-77.78,-10.7,60.37,14,6.04
266,Rāvar,118704,29,56.81,31.27,76.21,42,0.47
267,Gornopravdinsk,1506268,81,69.9,60.05,56.61,33,3.49
268,Mackay,2159220,58,149.2,-21.15,57.92,16,9.17
269,Maningrida,2067089,49,134.27,-12.07,71.89,27,15.48
270,Port-Cartier,6111696,63,-66.87,50.03,63.36,75,9.17
271,Berlevåg,780687,88,29.09,70.86,45.3,27,3.22
272,Athabasca,5887916,69,-113.29,54.72,63.07,100,14.5
274,Susanville,5572400,8,-120.65,40.42,90.54,1,13.87
275,Tayu,1624545,76,111.05,-6.54,78.26,0,9.06
276,Xinzhou,1788450,66,112.73,38.41,72.19,75,0.47
278,Faanui,4034551,80,-151.75,-16.48,78.69,100,14.74
279,Chui,3443061,74,-53.46,-33.7,38.62,1,9.75
280,Abomey,2395915,94,1.99,7.18,70.86,85,8.41
281,Naze,1855540,89,129.48,28.37,84.2,75,12.75
283,Ponta do Sol,2264557,64,-17.1,32.67,67.59,20,11.41
284,Zhezkazgan,1516589,38,67.71,47.8,71.71,0,14.58
285,Domoni,921906,74,44.53,-12.26,73.54,5,6.96
286,Marion,4260977,45,-86.16,39.77,80.06,40,10.29
287,Flin Flon,5954718,40,-101.86,54.77,73.4,40,9.17
288,São Gonçalo,6322065,64,-43.04,-22.82,76.33,35,6.93
289,Pitimbu,3391889,88,-34.81,-7.47,75.2,46,4.7
290,Vanimo,2084442,67,141.3,-2.67,83.41,74,4.7
292,Dwārka,1272140,82,68.97,22.24,83.32,98,12.86
293,Abhā,110690,56,42.51,18.22,70.65,52,6.93
294,Hvide Sande,2619537,80,8.13,56,60.01,82,1.99
295,Port Blair,1259385,79,92.75,11.67,81.21,100,10.92
296,Hohhot,2036892,77,111.65,40.81,66.2,67,4.47
297,Daru,2098329,86,143.21,-9.08,79.02,86,16.96
298,Salalah,286621,100,54.09,17.02,80.6,90,6.93
299,Ancud,3899695,86,-73.82,-41.87,39.2,40,2.24
301,College,5859699,72,-147.8,64.86,60.57,75,8.05
302,Dingle,1714733,81,122.67,11,81.12,100,0.49
303,Banjar,1650232,100,114.97,-8.19,80.6,75,12.75
304,Sitka,5557293,76,-135.33,57.05,57.2,90,11.41
305,Gemena,2315728,96,19.77,3.25,69.69,100,0.87
307,Roald,3141667,87,6.13,62.58,54.07,100,12.75
308,Baruun-Urt,2032614,62,113.28,46.68,70.5,100,2.59
309,Kitob,1216787,28,66.83,39.08,77.63,0,4.94
310,Mazagão,3395042,89,-51.29,-0.12,84.2,22,9.17
311,Arraial do Cabo,3471451,77,-42.03,-22.97,69.8,0,3.36
312,Benghazi,88319,81,20.07,32.12,77.4,0,11.86
313,Nan,1608451,100,100.67,18.83,73.4,75,0.34
314,Yumen,1528998,47,97.2,40.28,68.63,46,10.56
315,Korla,1529376,52,86.15,41.76,77,49,1.99
316,Mitsamiouli,921786,70,43.28,-11.38,77.14,17,5.75
317,Jumla,1283285,70,82.18,29.27,61.34,90,0.25
318,Matara,1235846,88,80.54,5.95,79.86,78,8.9
319,Mahébourg,934322,88,57.7,-20.41,69.8,40,5.82
320,Fare,4034496,80,-151.02,-16.7,79.16,88,11.03
321,Isla Aguada,3526766,55,-91.47,18.78,91.4,20,10.29
322,Xai-Xai,1024552,45,33.64,-25.05,61.57,0,12.39
323,Dali,1814093,87,100.18,25.7,63.75,100,3.89
324,Iqaluit,5983720,34,-68.51,63.75,64.4,20,14.99
325,Conceição da Barra,3465769,86,-39.73,-18.59,72.86,9,7.74
326,Kinghorn,2645500,81,-3.18,56.07,52.57,75,9.17
327,Mossamedes,3347019,82,12.15,-15.2,61.47,0,1.72
328,Vuktyl,470905,77,57.31,63.86,50.58,18,3.09
329,Teahupoo,4033543,74,-149.27,-17.83,82.18,90,17.22
330,Kucura,3187297,76,19.58,45.52,54.99,0,4.7
331,Tual,1623197,83,132.75,-5.67,79.25,54,20.42
334,Port Elizabeth,964420,50,25.57,-33.92,55.4,50,14.99
335,Rochester,5134086,56,-77.62,43.15,73.53,40,9.17
336,Coyhaique,3894426,80,-72.07,-45.58,33.8,20,4.9
338,Lorengau,2092164,71,147.27,-2.02,83.44,77,5.7
339,Jacareacanga,3397763,82,-57.75,-6.22,74.14,28,1.57
340,Cuamba,1047660,93,36.54,-14.8,57.43,1,1.86
341,Sur,286245,70,59.53,22.57,83.5,0,12.01
342,Jutaí,3663693,90,-68.9,-5.18,74.88,99,2.33
343,Gari,1506676,76,62.35,59.43,58.26,45,5.28
344,Kloulklubed,7671223,83,134.26,7.04,82.4,75,9.17
345,Yellowknife,6185377,100,-114.35,62.46,59,90,16.11
347,Beira,1052373,77,34.84,-19.84,60.46,0,5.86
348,Tezu,1254709,70,96.17,27.92,79.5,100,1.77
349,Bagdarin,2027244,79,113.6,54.43,67.46,34,1.03
350,Bogorodskoye,575521,94,37.88,56.55,56.37,96,7.11
351,Itoman,1861280,84,127.67,26.12,85.53,20,9.17
352,Horishni Plavni,6559559,85,33.65,49.01,57.67,100,12.91
353,Ngama,2427036,61,17.17,11.78,83.08,71,4.7
354,Flinders,6255012,82,150.86,-34.58,55.17,100,11.99
355,Husavik,2629833,87,-17.34,66.04,51.8,90,8.05
356,Dunedin,2191562,68,170.5,-45.87,46.99,49,1.99
357,Kaeo,2189343,3,173.78,-35.1,59,96,3
359,Phan Thiet,1571058,83,108.1,10.93,78.58,100,6.42
360,Dolores,3435038,77,-57.68,-36.31,36.68,0,8.99
361,Japura,1642773,97,102.35,-0.32,71.69,100,3.11
362,Zyryanka,2119283,37,150.85,65.75,74.39,61,3.71
364,Bam,141736,26,58.36,29.11,85.68,93,2.01
366,Meulaboh,1214488,84,96.13,4.14,76.6,93,4.83
367,Bambous Virieux,1106677,88,57.76,-20.34,70.38,40,5.82
368,Seydi,1218420,18,62.91,39.48,78.39,0,8.46
369,Coquimbo,3893629,87,-71.34,-29.95,51.8,33,3.36
370,Riyadh,108410,16,46.72,24.69,95,0,4.7
371,Puerto Carreño,3671519,83,-67.49,6.19,80.6,40,8.05
372,Creel,4012593,53,-107.63,27.75,73.74,47,9.69
373,Port Hedland,2063042,33,118.57,-20.32,59,52,9.17
374,Warrnambool,2144528,93,142.48,-38.38,52,1,7.05
375,Zyryanovsk,1516438,86,84.27,49.74,60.35,92,1.36
376,Port Lincoln,2063036,78,135.87,-34.73,54.68,0,9.69
377,Cabadiangan,1722028,76,122.47,9.75,82.17,100,5.5
378,Seddon,7281807,81,144.89,-37.81,51.3,75,11.41
379,Aranos,3358666,61,19.12,-24.13,41.54,0,8.99
380,Beloha,1067565,93,45.05,-25.17,58.6,0,2.39
381,Malakal,370737,89,31.66,9.53,73.06,41,0.56
382,Whitehorse,6180550,39,-135.05,60.72,62.69,75,8.05
383,Itiúba,3460548,76,-39.85,-10.69,68.63,72,6.55
384,Qasigiannguit,3420768,70,-51.19,68.82,46.4,100,2.62
385,Gondanglegi,1640660,83,112.01,-7.75,76.82,0,8.7
386,Chara,2025630,62,118.26,56.91,70.99,45,1.9
387,San Jose,5392171,44,-121.89,37.34,78.91,20,13.87
389,Champerico,3598787,78,-91.92,14.3,80.6,75,6.93
390,Ranau,1733502,94,116.66,5.95,77,20,3.36
391,Richards Bay,962367,36,32.04,-28.78,59.97,0,7.99
393,Krasnovishersk,542184,71,57.08,60.41,59.52,84,3.47
394,Calabozo,3647444,88,-67.43,8.92,77.52,37,4.99
395,Nouadhibou,2377457,88,-17.03,20.93,69.8,0,19.46
396,San Miguel de Tucumán,3836873,58,-65.22,-26.82,57.2,0,3.36
397,Christchurch,2192362,87,172.63,-43.53,42.91,0,3.36
398,Byron Bay,2172880,58,153.62,-28.65,54.21,6,18.34
399,Jalu,86049,59,21.55,29.03,76.32,0,9.44
400,Pori,640999,93,21.78,61.48,50,20,4.7
401,Zhigansk,2012530,65,123.37,66.77,66.4,1,0.47
402,New Amsterdam,3376762,92,-57.52,6.25,75.83,2,2.73
403,Ranong,1150965,94,98.63,9.97,75.2,75,0.4
404,Deputatsky,2028164,97,139.9,69.3,51.1,100,6.17
405,Cañon City,5416005,45,-105.24,38.44,79.66,44,1.99
406,Luangwa,909887,82,30.42,-15.62,56.21,0,1.61
407,Syracuse,2523082,83,15.28,37.09,73.94,3,6.93
409,San Ignacio,3581194,88,-89.07,17.16,82.69,20,7.38
410,Kiryat Gat,293842,84,34.76,31.61,72.7,0,1.92
411,Russell,4047434,52,-85.2,32.35,90.1,1,4.7
412,Antsohihy,1068971,84,47.99,-14.88,64.15,25,2.21
413,Taoudenni,2450173,16,-3.98,22.68,99.5,22,6.49
414,Tigil',2120612,57,158.67,57.8,69.46,75,5.01
415,Zhangjiakou,2033196,64,114.88,40.81,70.23,62,2.91
416,Fort Nelson,5955902,38,-122.7,58.81,73.4,75,17.22
417,Kashgar,1280849,46,75.98,39.45,69.8,20,2.24
418,Kostanay,1519928,63,63.58,53.17,66.2,0,2.24
419,Paulo Ramos,3392731,86,-45.18,-4.22,74.66,69,4.27
420,Blagoyevo,576093,91,47.92,63.37,56.07,100,5.32
421,Aquiraz,3407407,74,-38.39,-3.9,78.8,57,5.82
422,The Pas,6164499,46,-101.25,53.83,73.4,1,8.05
423,Bengkulu,1649150,86,102.27,-3.8,75.74,97,3.94
424,Sobolevo,525426,94,31.9,54.43,50.52,83,8.23
425,Korem,332746,75,39.52,12.51,59.41,65,7.63
426,Dombarovskiy,565407,62,59.54,50.76,70.9,73,9.95
427,Honningsvåg,779554,87,25.97,70.98,46.11,17,8.61
428,Kiunga,2093846,92,141.29,-6.12,76.98,94,3.36
429,Ballina,2177069,58,153.57,-28.87,54.99,6,18.34
430,Saint-Pierre,935214,68,55.48,-21.34,61.77,3,8.05
431,Grajaú,3398856,45,-46.14,-5.82,82.8,99,1.41
432,Beşikdüzü,750735,69,39.23,41.05,75.2,75,5.82
434,Rome,5134295,64,-75.46,43.21,74.55,40,8.05
435,Taperoá,3386693,76,-36.83,-7.21,68.4,24,12.01
437,Jinchang,1805733,44,102.17,38.5,72.57,18,2.62
438,Terre Haute,4265737,54,-87.41,39.47,78.98,1,5.82
439,Port-Gentil,2396518,88,8.78,-0.72,75.2,90,14.41
440,Visby,2662689,93,18.3,57.64,51.48,34,3.36
441,Prattville,4084796,52,-86.46,32.46,89.19,1,1.86
442,Puerto Peñasco,3991347,81,-113.53,31.32,87.01,28,13
443,Chernyshevskiy,2025456,57,112.47,63.01,69.94,48,3.36
444,Kabo,2386042,97,18.63,7.7,70.38,92,4.81
445,Trojes,783493,77,19.96,41.76,64.4,76,2.24
446,Palu,1633034,75,119.87,-0.89,79.47,88,2.89
447,Āsind,1278278,69,74.33,25.73,82.71,44,12.1
448,Poya,2138522,61,165.15,-21.35,76.19,100,7.38
449,Katherine,2068655,23,132.27,-14.47,60.8,35,12.75
450,Hamilton,4513583,48,-84.53,39.18,81.77,75,9.17
451,Assiut,359783,37,31.18,27.18,82.4,1,11.41
452,Yenagoa,2318123,91,6.26,4.92,74.84,100,5.73
453,Oxapampa,3933874,90,-75.4,-10.58,58.96,39,1.88
455,Fort Walton Beach,4156042,94,-86.62,30.41,84.76,1,4.7
456,Slave Lake,6149374,67,-114.77,55.28,62.6,20,25.28
457,Vila,7117100,40,-8.16,42.03,66.9,29,10.29
458,Asău,686090,87,26.4,46.43,51.01,6,3.6
459,Trelew,3833883,74,-65.31,-43.25,37.26,0,12.68
460,Nova Olinda do Norte,3393838,84,-59.09,-3.89,76.6,26,1.88
461,St. Pete Beach,4171522,74,-82.74,27.73,87.3,20,10.29
462,Morón,3430545,48,-58.62,-34.65,44.91,0,3
463,Pangnirtung,6096551,76,-65.71,66.15,51.8,75,5.82
464,Tak,1150489,94,98.83,16.58,75.2,75,2.82
465,Haikou,1809078,94,110.34,20.05,78.8,0,4.47
466,Kununurra,2068110,27,128.73,-15.77,62.6,0,8.05
467,Soe,1626703,81,124.28,-9.86,67.48,18,8.16
468,Sambava,1056899,84,50.17,-14.27,67.46,69,8.1
469,Vondrozo,1053507,100,47.28,-22.82,55.87,34,2.48
470,Turukhansk,1488903,93,87.98,65.82,56.97,83,11.1
471,Caucayá,3671437,95,-74.78,-0.19,73.49,99,1.77
472,Aksarka,1512019,74,67.8,66.56,51.15,21,14.36
474,Urucará,3385670,69,-57.76,-2.54,78.31,7,2.28
475,Staunton,4787440,54,-79.07,38.15,81.41,1,0.38
476,Inta,1505579,75,60.17,66.03,50.34,71,9.48
477,Nelson Bay,2155562,100,152.15,-32.72,56.86,90,21.92
478,Santarém,3389353,88,-54.71,-2.44,80.6,20,3.36
479,Amahai,1651591,100,128.92,-3.33,81,88,1.01
480,São Filipe,3374210,84,-24.5,14.9,78.24,55,4.07
481,Batangafo,2389691,96,18.28,7.3,70.52,96,3.56
482,Privolzhye,505043,46,48.6,52.86,77.4,6,10.31
483,Buchanan,2278158,94,-10.05,5.88,77,75,4.7
484,Parabel',1495586,84,81.48,58.7,63.3,42,9.37
485,Heihe,2036973,94,127.49,50.24,69.8,0,4.47
486,Broken Hill,2173911,87,141.43,-31.95,42.8,1,10.29
487,Kyabé,2429344,89,18.94,9.45,73.74,98,2.82
488,Kisi,2334327,96,3.85,9.08,70.88,75,9.82
489,Samarai,2132606,89,150.67,-10.62,79.14,96,11.63
490,Havre-St-Pierre,5972291,76,-63.6,50.23,55.4,90,14.99
491,Great Falls,5655240,21,-111.3,47.5,73.02,20,5.82
492,Kontagora,2334008,93,5.47,10.4,72.46,82,5.3
493,Xapuri,3924674,70,-68.5,-10.65,77.43,23,2.42
494,Casper,5820705,11,-106.31,42.87,89.87,1,21.92
495,Lata,2738381,73,-8.33,40.16,74.39,0,1.01
496,San Policarpo,1688696,74,125.51,12.18,84.45,53,7.29
497,Sindgi,1256214,83,76.23,16.92,74.79,100,10.83
498,Araouane,2460954,23,-3.53,18.9,97.57,40,5.14
499,Kavaratti,1267390,76,72.64,10.57,83.1,100,8.81
500,Myitkyina,1307741,97,97.4,25.38,75.33,100,0.72
501,Barcelos,2742416,73,-8.62,41.54,77.11,1,3.36
502,Palmer,4946620,73,-72.33,42.16,73.74,40,6.93
503,Manbij,167357,42,37.95,36.53,80.6,0,12.75
504,Yerbogachën,2012956,64,108.01,61.28,68.4,58,2.53
505,Quaraí,3452179,82,-56.45,-30.39,44.08,0,6.51
507,Balezino,579432,92,53.01,57.98,61.92,0,6.71
508,Thunder Bay,6166142,56,-89.32,48.4,73.4,75,10.29
509,Villa Bruzual,3625346,89,-69.12,9.33,76.33,73,1.23
510,Teknāf,1185095,92,92.31,20.86,78.82,100,10.33
511,Isla Mujeres,3526756,66,-86.73,21.23,85.53,5,10.29
512,Karratha,6620339,38,116.85,-20.74,68.56,3,10.83
513,Skjervøy,777682,71,20.97,70.03,53.89,41,12.3
514,Akonolinga,2235776,98,12.25,3.77,67.5,64,3.6
515,Kieta,2094027,64,155.63,-6.22,84.54,98,3.27
516,Ayan,2027316,76,138.17,56.45,59.07,0,12.37
517,Buala,2109528,66,159.59,-8.14,85.06,98,7
518,Dzilam González,3529654,71,-88.93,21.28,89.01,15,8.99
519,Floirac,3018246,68,-0.51,44.83,65.1,90,6.93
520,Grass Valley,5353775,17,-121.06,39.22,89.17,1,9.17
521,Pskov,504341,93,28.35,57.81,48.2,1,4.47
522,Puerto Escondido,3520994,62,-97.07,15.85,86,40,5.82
523,Yangi Marg`ilon,1513491,44,71.72,40.43,75.2,80,2.24
525,Miracema do Tocantins,3384937,41,-48.4,-9.56,78.69,62,1.28
526,Iranshahr,1160939,41,60.68,27.2,90.34,1,2.35
527,Gavrilovka Vtoraya,561804,89,42.77,52.88,66.27,54,11.74
528,Pochutla,3517970,58,-96.47,15.74,87.91,75,11.41
529,Bulungu,2316259,70,18.6,-4.55,75.24,82,3.33
530,Kroya,1639337,87,109.25,-7.63,76.84,35,5.41
531,Şurmān,2210560,52,12.57,32.76,77.99,0,9.89
532,Alofi,4036284,75,-169.92,-19.06,71.74,76,25.55
533,Lima,3936456,82,-77.03,-12.04,60.8,90,6.93
535,Lieksa,648090,83,30.02,63.32,52.77,18,3.58
536,Natal,3394023,94,-35.21,-5.79,71.58,29,3.36
537,Havelock,4470244,83,-76.9,34.88,72.32,75,4.7
538,Pangoa,3933104,87,-73,-12.12,70.54,24,2.77
539,Katsuura,2112309,94,140.3,35.13,74.21,90,10.29
540,El Salvador,3585968,62,-88.92,13.83,87.8,20,3.36
541,Mozarlândia,3456642,37,-50.57,-14.74,75.56,21,3
542,Aklavik,5882953,48,-135.01,68.22,66.2,40,2.24
543,Zabul Province,1121143,30,67.25,32.25,62.56,0,3.49
544,Adré,245669,54,22.2,13.47,80.42,5,6.04
545,Nyurba,2018735,62,118.33,63.28,74.37,40,2.42
546,Vila Franca do Campo,3372472,82,-25.43,37.72,66.2,20,9.17
547,Coxim,3465228,39,-54.76,-18.51,80.24,22,0.56
548,Urusha,2014078,44,122.9,54.05,84.69,75,0.94
549,Henties Bay,3356832,91,14.28,-22.12,53.01,0,12.86
550,Marsh Harbour,3571913,75,-77.06,26.54,84.51,100,10.87
551,Saint-Gabriel,6138260,7,-73.38,46.3,72.77,80,1.01
552,Mahibadhoo,1337605,69,72.97,3.78,83.8,71,6.53
553,Honiara,2108502,94,159.95,-9.43,77,90,5.82
554,Aksha,2028028,77,113.29,50.28,68.95,1,1.16
555,Maragogi,3395458,83,-35.22,-9.01,73.99,14,3.62
556,Envira,3664301,90,-70.22,-7.3,74.5,100,2.89
557,Shelopugino,2016757,66,117.56,51.65,73.15,88,4.23
558,Necochea,3430443,73,-58.74,-38.55,39.99,17,10
559,Porto-Novo,2392087,94,2.6,6.5,77,20,9.17
560,Amos,5884588,64,-78.12,48.57,70.9,20,9.17
561,Te Anau,2181625,85,167.72,-45.42,39.09,39,0.65
562,Ixtapa,4004293,70,-105.2,20.7,87.89,75,9.17
563,Aurora,5412347,15,-104.83,39.73,90.72,75,14.99
564,La Palma,5364022,48,-118.05,33.85,79.38,20,10.29
565,Camacha,2270385,73,-16.33,33.08,69.8,75,14.99
566,Achacachi,3924610,75,-68.68,-16.05,42.66,0,8.93
567,Pirogovo,509401,80,53.15,56.78,69.01,28,6.8
568,Dongsheng,1812256,50,109.98,39.82,72.72,93,7.9
569,Vysokogornyy,2013216,66,139.15,50.12,66.7,66,2.66
570,Portland,5746545,29,-122.68,45.52,78.66,20,9.17
571,Guánica,4565090,74,-66.91,17.97,83.8,19,4
572,Shakiso,328716,92,38.92,5.75,59.31,84,1.63
573,Bunia,217695,87,30.25,1.57,63.12,77,0.54
574,Petropavlovsk-Kamchatskiy,2122104,100,158.65,53.05,51.8,90,2.24
575,Worthington,5177396,51,-83.02,40.09,79.45,40,12.75
576,Buncrana,2654332,86,-7.45,55.13,52.59,95,8.21
577,Hazorasp,1513957,41,61.07,41.32,75.2,0,9.17
578,Nicoya,3622716,66,-85.45,10.15,84.2,75,5.82
579,Ust'-Kut,2013923,57,105.77,56.79,74.88,3,1.7
580,Westport,4845585,57,-73.36,41.14,82.36,20,8.39
582,Chitral,1181065,42,71.79,35.85,72.43,99,1.99
583,Srandakan,1626493,84,110.25,-7.94,77.36,64,5.53
584,Montepuez,1037125,83,39,-13.13,65.12,56,7.96
585,Pindwāra,1259638,76,73.07,24.8,82.26,79,2.71
586,Fagersta,2715656,80,15.79,60,49.42,82,0.49
587,Bud,4255151,44,-86.18,39.45,80.51,1,5.44
588,Ebes,721257,67,21.5,47.47,59,0,8.05
589,Columbus,4509177,51,-83,39.96,80.46,40,12.75
590,Mana,3381041,85,-53.78,5.66,78.04,5,7.23
591,Inza,556283,68,46.36,53.85,69.28,86,6.67
592,Seoul,1835848,88,126.98,37.57,65.71,90,10.49
593,Avera,4231997,49,-82.53,33.19,88.52,40,5.82
594,Kailua,5847486,61,-157.74,21.4,83.01,40,13.87
595,Andenes,3163146,96,16.12,69.31,48,58,5.99
597,Suntar,2015913,61,117.63,62.14,75.45,5,1.79
598,Touros,3386213,94,-35.46,-5.2,69.8,6,3.36
599,Alekseyevsk,2022083,49,108.35,57.84,72.68,2,4.85
600,Tessalit,2449893,11,1.01,20.2,93.13,0,4.29
601,Lagunas,3695844,92,-75.68,-5.23,74.73,65,0.29
602,Wad Medani,364103,55,33.52,14.4,84.88,0,16.6
603,Xianyang,1790353,83,108.7,34.34,75.11,20,8.95
605,Kaitangata,2208248,76,169.85,-46.28,46,77,4
606,Maltahöhe,3355624,76,16.98,-24.83,37.83,0,3.56
607,Malibu,5369906,83,-118.81,34.01,74.52,17,5.01
608,Cortez,5418104,12,-108.59,37.35,90.86,1,17.22
609,Moose Factory,6078372,82,-80.61,51.26,62.6,1,9.17
610,Sechura,3691954,76,-80.82,-5.56,66.88,27,16.06
611,São Félix do Xingu,3388847,48,-51.99,-6.64,75.11,14,2.08
612,Mezen',527321,88,44.24,65.85,50.05,100,6.64
613,Srednekolymsk,2121025,36,153.68,67.45,66.16,4,10.2
614,Puerto Colombia,3671497,74,-74.95,10.99,86,20,8.05
616,Bayan,2038421,68,127.4,46.08,76.91,0,4.32
617,Ambilobe,1082243,79,49.05,-13.2,65.23,62,3.27
618,North Bend,5742974,72,-124.22,43.41,67.51,1,26.4
619,Aykhal,2027296,48,111.5,66,66.2,12,4.47
620,Bulgan,2032201,78,103.53,48.81,62.83,71,2.8
621,Kendal,2645826,87,-2.75,54.33,55.04,78,1.99
623,Port Macquarie,2152659,88,152.92,-31.43,53.01,100,5.99
624,Imeni Poliny Osipenko,2023584,69,136.49,52.42,71.6,52,0.89
625,Hayden,5595320,25,-116.79,47.77,73.31,1,9.17
626,Caibarién,3566356,74,-79.47,22.52,82.99,97,7.85
627,Atasū,1526041,48,71.64,48.68,63.52,0,9.78
628,Blackwater,2175403,41,148.88,-23.58,58.41,0,12.03
629,Broome,5110365,64,-75.83,42.25,70.7,75,12.75
630,Borzya,2026126,71,116.52,50.38,71.01,89,4
631,Bereda,3105522,95,-7.54,43.27,58.64,48,5.99
632,Sol'vychegodsk,490743,94,46.92,61.33,58.59,77,7.36
633,Rancho Palos Verdes,5386035,73,-118.39,33.74,74.66,5,14.99
634,Bandarbeyla,64814,68,50.81,9.49,78.84,49,27.65
635,Narón,3115739,82,-8.15,43.52,62.19,59,5.82
636,Codrington,2171099,83,141.97,-38.27,48.79,8,4.65
637,Shimokizukuri,2129513,88,140.39,40.81,69.24,75,5.82
638,Padang,1633419,73,100.35,-0.95,77.86,100,3.65
639,Ilovlya,556961,47,43.98,49.3,77,46,8.95
640,Rio Grande,3451138,71,-52.1,-32.03,45,0,1.01
641,Geraldton,2070998,87,114.6,-28.77,60.8,75,17.22
642,Grindavik,3416888,81,-22.43,63.84,50,75,2.24
643,Saint-Augustin,6137462,87,-58.65,51.23,53.38,100,16.8
645,Ascension,4315067,63,-90.9,30.22,91.29,98,6.93
